[
    {
        "name": "큐브이스케이프 홍대점",
        "spot": "홍대",
        "location": {
            "latitude": "37.553584",
            "longitude": "126.920718"
        },
        "address": "서울 마포구 양화로16길 15 무광빌딩 4층",
        "number": "02-323-5567"
    },

    {
        "name": "트릭아이뮤지엄 서울",
        "spot": "홍대",
        "location": {
            "latitude": "37.553792",
            "longitude": "126.921918"
        },
        "address": "서울 마포구 홍익로3길 20 서교프라자 지하2층",
        "number": "02-322-8177"
    },

    {
        "name": "동궁과 월지",
        "spot": "경주",
        "location": {
            "latitude": "35.835060",
            "longitude": "129.226522"
        },
        "address": "경북 경주시 원화로 102 안압지",
        "number": "054-750-8655"
    },

    {
        "name": "경주 뽀로로아쿠아빌리지",
        "spot": "경주",
        "location": {
            "latitude": "35.861189",
            "longitude": "129.270650"
        },
        "address": "경북 경주시 보문로 182-27",
        "number": "054-777-8300"
    },

    {
        "name": "첨성대",
        "spot": "경주",
        "location": {
            "latitude": "35.835147",
            "longitude": "129.218916"
        },
        "address": "경북 경주시 인왕동 839-1",
        "number": "054-772-3843"
    },

    {
        "name": "해운대",
        "spot": "부산",
        "location": {
            "latitude": "35.160508",
            "longitude": "129.160213"
        },
        "address": "부산 해운대구 우동",
        "number": "051-749-5700"
    },

    {
        "name": "감천문화마을",
        "spot": "부산",
        "location": {
            "latitude": "35.097776",
            "longitude": "129.010592"
        },
        "address": "부산 사하구 감내2로 203 감천문화마을안내센터",
        "number": "051-204-1444"
    },

    {
        "name": "오시리아 관광단지",
        "spot": "부산",
        "location": {
            "latitude": "35.200420",
            "longitude": "129.211648"
        },
        "address": "부산 기장군 기장읍 시랑리",
        "number": ""
    },

    {
        "name": "석촌호수",
        "spot": "잠실",
        "location": {
            "latitude": "37.508488",
            "longitude": "127.100746"
        },
        "address": "서울 송파구 잠실동",
        "number": "02-412-0190"
    },

    {
        "name": "롯데월드 어드벤처",
        "spot": "잠실",
        "location": {
            "latitude": "37.511591",
            "longitude": "127.098210"
        },
        "address": "서울 송파구 올림픽로 240",
        "number": "1661-2000"
    },

    {
        "name": "잠실종합운동장",
        "spot": "잠실",
        "location": {
            "latitude": "37.515505",
            "longitude": "127.072979"
        },
        "address": "서울 송파구 올림픽로 25 서울종합운동장",
        "number": "02-2240-8800"
    }
]
